{
  "branches": [
    {
      "city": "Brooklyn",
      "name": "Target Brooklyn College",
      "country": "US",
      "longitude": -73.9472427368164,
      "latitude": 40.6312637329102,
      "storeId": 6551
    },
    {
      "city": "Kew Gardens",
      "name": "118-24 Queens Blvd",
      "country": "US",
      "longitude": -73.8318786621094,
      "latitude": 40.7143707275391,
      "storeId": 6348
    },
    {
      "city": "New York",
      "name": "88th & Broadway",
      "country": "US",
      "longitude": -73.9753265380859,
      "latitude": 40.7892875671387,
      "storeId": 6590
    },
    {
      "city": "New York",
      "name": "42nd & 2nd",
      "country": "US",
      "longitude": -73.9728012084961,
      "latitude": 40.7497825622559,
      "storeId": 6869
    },
    {
      "city": "New York",
      "name": "NHL store @ 47th & Sixth",
      "country": "US",
      "longitude": -73.9824523925781,
      "latitude": 40.7577857971191,
      "storeId": 6945
    },
    {
      "city": "New York",
      "name": "23rd btwn 5th & 6th",
      "country": "US",
      "longitude": -73.9903106689453,
      "latitude": 40.7416610717773,
      "storeId": 6756
    },
    {
      "city": "New York",
      "name": "Houston & W. Broadway",
      "country": "US",
      "longitude": -74.0002593994141,
      "latitude": 40.7268905639648,
      "storeId": 6995
    },
    {
      "city": "New York",
      "name": "Macy's 6th Floor",
      "country": "US",
      "longitude": -73.989501953125,
      "latitude": 40.7511177062988,
      "storeId": 6999
    },
    {
      "city": "Staten Island",
      "name": "Target Staten Island T-2006",
      "country": "US",
      "longitude": -74.2333145141602,
      "latitude": 40.5282783508301,
      "storeId": 7063
    },
    {
      "city": "New York",
      "name": "55th & Lex",
      "country": "US",
      "longitude": -73.9699783325195,
      "latitude": 40.7594451904297,
      "storeId": 7083
    },
    {
      "city": "Bronx",
      "name": "235th & Johnson Ave",
      "country": "US",
      "longitude": -73.9099731445312,
      "latitude": 40.8857803344727,
      "storeId": 6966
    },
    {
      "city": "New York",
      "name": "58th btwn 3rd & Lex",
      "country": "US",
      "longitude": -73.967887878418,
      "latitude": 40.7614212036133,
      "storeId": 7138
    },
    {
      "city": "New York",
      "name": "103rd & Broadway",
      "country": "US",
      "longitude": -73.9683685302734,
      "latitude": 40.7988815307617,
      "storeId": 7458
    },
    {
      "city": "Brooklyn",
      "name": "1971 86th Street",
      "country": "US",
      "longitude": -73.9986114501953,
      "latitude": 40.6050186157227,
      "storeId": 7491
    },
    {
      "city": "Brooklyn",
      "name": "Cropsey Ave & Hart Place",
      "country": "US",
      "longitude": -73.9854278564453,
      "latitude": 40.5811080932617,
      "storeId": 7189
    },
    {
      "city": "New York",
      "name": "Roosevelt Island",
      "country": "US",
      "longitude": -73.9528884887695,
      "latitude": 40.7593269348145,
      "storeId": 7098
    },
    {
      "city": "New York",
      "name": "Empire State Building",
      "country": "US",
      "longitude": -73.9856109619141,
      "latitude": 40.7486610412598,
      "storeId": 7549
    },
    {
      "city": "Jackson Heights",
      "name": "78-25 37th Avenue",
      "country": "US",
      "longitude": -73.8873596191406,
      "latitude": 40.749439239502,
      "storeId": 7615
    },
    {
      "city": "New York",
      "name": "125th & Adam Clayton",
      "country": "US",
      "longitude": -73.9486389160156,
      "latitude": 40.8092460632324,
      "storeId": 7747
    },
    {
      "city": "Bronx",
      "name": "Eastchester Rd & Waters Pl",
      "country": "US",
      "longitude": -73.844352722168,
      "latitude": 40.8471221923828,
      "storeId": 7864
    },
    {
      "city": "New York",
      "name": "60th & Third",
      "country": "US",
      "longitude": -73.9657440185547,
      "latitude": 40.762393951416,
      "storeId": 7919
    },
    {
      "city": "New York",
      "name": "19th & Park",
      "country": "US",
      "longitude": -73.9883041381836,
      "latitude": 40.737979888916,
      "storeId": 7771
    },
    {
      "city": "New York",
      "name": "Marriott Financial Center",
      "country": "US",
      "longitude": -74.0146102905273,
      "latitude": 40.709644317627,
      "storeId": 7835
    },
    {
      "city": "New York",
      "name": "Pearl & Hanover",
      "country": "US",
      "longitude": -74.0091247558594,
      "latitude": 40.7046012878418,
      "storeId": 7912
    },
    {
      "city": "Brooklyn",
      "name": "33-42 Hillel Place",
      "country": "US",
      "longitude": -73.9485702514648,
      "latitude": 40.6323394775391,
      "storeId": 8328
    },
    {
      "city": "Flushing",
      "name": "Target Flushing T-1150",
      "country": "US",
      "longitude": -73.8332901000977,
      "latitude": 40.7834167480469,
      "storeId": 8059
    },
    {
      "city": "New York",
      "name": "35th & 5th",
      "country": "US",
      "longitude": -73.9838256835938,
      "latitude": 40.749137878418,
      "storeId": 8588
    },
    {
      "city": "New York",
      "name": "59th & Columbus",
      "country": "US",
      "longitude": -73.9849090576172,
      "latitude": 40.7694473266602,
      "storeId": 8735
    },
    {
      "city": "New York",
      "name": "Chambers and West Broadway",
      "country": "US",
      "longitude": -74.009033203125,
      "latitude": 40.7155342102051,
      "storeId": 8692
    },
    {
      "city": "New York",
      "name": "75th & First",
      "country": "US",
      "longitude": -73.9546279907227,
      "latitude": 40.7700309753418,
      "storeId": 8795
    },
    {
      "city": "New York",
      "name": "90th & First",
      "country": "US",
      "longitude": -73.9474716186523,
      "latitude": 40.7791175842285,
      "storeId": 8923
    },
    {
      "city": "New York",
      "name": "Spring and Varick",
      "country": "US",
      "longitude": -74.0055770874023,
      "latitude": 40.725772857666,
      "storeId": 8947
    },
    {
      "city": "New York",
      "name": "Broadway & Grand",
      "country": "US",
      "longitude": -74.0004501342773,
      "latitude": 40.7212600708008,
      "storeId": 8907
    },
    {
      "city": "Brooklyn",
      "name": "607 Brighton Beach Ave",
      "country": "US",
      "longitude": -73.9611282348633,
      "latitude": 40.5778656005859,
      "storeId": 9148
    },
    {
      "city": "New York",
      "name": "One Penn Plaza",
      "country": "US",
      "longitude": -73.9927673339844,
      "latitude": 40.7516174316406,
      "storeId": 9206
    },
    {
      "city": "New York",
      "name": "Liberty & Nassau",
      "country": "US",
      "longitude": -74.0095062255859,
      "latitude": 40.708740234375,
      "storeId": 9218
    },
    {
      "city": "New York",
      "name": "57th & Seventh",
      "country": "US",
      "longitude": -73.9789733886719,
      "latitude": 40.7648735046387,
      "storeId": 8920
    },
    {
      "city": "New York",
      "name": "44th & Lex",
      "country": "US",
      "longitude": -73.9749755859375,
      "latitude": 40.7531776428223,
      "storeId": 8976
    },
    {
      "city": "New York",
      "name": "14th & Sixth",
      "country": "US",
      "longitude": -73.9963989257812,
      "latitude": 40.7369804382324,
      "storeId": 8919
    },
    {
      "city": "New York",
      "name": "50th & Lex",
      "country": "US",
      "longitude": -73.9726333618164,
      "latitude": 40.7568626403809,
      "storeId": 9231
    },
    {
      "city": "New York",
      "name": "75th & Broadway",
      "country": "US",
      "longitude": -73.981071472168,
      "latitude": 40.7810173034668,
      "storeId": 9267
    },
    {
      "city": "New York",
      "name": "Allen & Delancey",
      "country": "US",
      "longitude": -73.9899520874023,
      "latitude": 40.7193222045898,
      "storeId": 9589
    },
    {
      "city": "New York",
      "name": "41st & Madison",
      "country": "US",
      "longitude": -73.9797210693359,
      "latitude": 40.7519569396973,
      "storeId": 9351
    },
    {
      "city": "New York",
      "name": "55th & Seventh",
      "country": "US",
      "longitude": -73.9810791015625,
      "latitude": 40.7643852233887,
      "storeId": 9675
    },
    {
      "city": "Astoria",
      "name": "35th Ave and 37th St",
      "country": "US",
      "longitude": -73.9234848022461,
      "latitude": 40.7559089660645,
      "storeId": 9764
    },
    {
      "city": "New York",
      "name": "21st & 5th",
      "country": "US",
      "longitude": -73.9911651611328,
      "latitude": 40.7403831481934,
      "storeId": 10251
    },
    {
      "city": "New York",
      "name": "85th & Lexington",
      "country": "US",
      "longitude": -73.9560394287109,
      "latitude": 40.7786483764648,
      "storeId": 10249
    },
    {
      "city": "Sunnyside",
      "name": "46-09 Queens Blvd",
      "country": "US",
      "longitude": -73.9183349609375,
      "latitude": 40.7434349060059,
      "storeId": 10255
    },
    {
      "city": "New York",
      "name": "Nassau & Fulton",
      "country": "US",
      "longitude": -74.0079345703125,
      "latitude": 40.7101707458496,
      "storeId": 10655
    },
    {
      "city": "New York",
      "name": "118th & Frederick Douglas Blvd.",
      "country": "US",
      "longitude": -73.9544982910156,
      "latitude": 40.8059158325195,
      "storeId": 10763
    },
    {
      "city": "Jamaica",
      "name": "St. John's University - Queens",
      "country": "US",
      "longitude": -73.7961349487305,
      "latitude": 40.7225151062012,
      "storeId": 10917
    },
    {
      "city": "Bronx",
      "name": "Target Bronx Terminal T-2475",
      "country": "US",
      "longitude": -73.9303894042969,
      "latitude": 40.8196296691895,
      "storeId": 10906
    },
    {
      "city": "New York",
      "name": "24th & 7th",
      "country": "US",
      "longitude": -73.995246887207,
      "latitude": 40.7443161010742,
      "storeId": 10973
    },
    {
      "city": "New York",
      "name": "Church Street & Murray",
      "country": "US",
      "longitude": -74.0091247558594,
      "latitude": 40.7137794494629,
      "storeId": 11040
    },
    {
      "city": "New York",
      "name": "43rd & Madison",
      "country": "US",
      "longitude": -73.9782485961914,
      "latitude": 40.7536849975586,
      "storeId": 11140
    },
    {
      "city": "New York",
      "name": "Rockefeller Center Concourse",
      "country": "US",
      "longitude": -73.9786605834961,
      "latitude": 40.7587623596191,
      "storeId": 11153
    },
    {
      "city": "New York",
      "name": "15th & 3rd",
      "country": "US",
      "longitude": -73.9865951538086,
      "latitude": 40.7337493896484,
      "storeId": 11087
    },
    {
      "city": "New York",
      "name": "49th & 8th",
      "country": "US",
      "longitude": -73.9865951538086,
      "latitude": 40.7619171142578,
      "storeId": 11196
    },
    {
      "city": "New York",
      "name": "24th & 6th",
      "country": "US",
      "longitude": -73.9920272827148,
      "latitude": 40.7435722351074,
      "storeId": 11203
    },
    {
      "city": "New York",
      "name": "52nd & 7th",
      "country": "US",
      "longitude": -73.981803894043,
      "latitude": 40.7619094848633,
      "storeId": 11393
    },
    {
      "city": "New York",
      "name": "111th & Broadway",
      "country": "US",
      "longitude": -73.966667175293,
      "latitude": 40.8046951293945,
      "storeId": 11432
    },
    {
      "city": "New York",
      "name": "114th & Broadway",
      "country": "US",
      "longitude": -73.9649124145508,
      "latitude": 40.8071098327637,
      "storeId": 11157
    },
    {
      "city": "New York",
      "name": "27th & 6th",
      "country": "US",
      "longitude": -73.9908752441406,
      "latitude": 40.7452125549316,
      "storeId": 11291
    },
    {
      "city": "New York",
      "name": "35th & 7th",
      "country": "US",
      "longitude": -73.9902114868164,
      "latitude": 40.7518424987793,
      "storeId": 11433
    },
    {
      "city": "New York",
      "name": "60th and Broadway",
      "country": "US",
      "longitude": -73.9823913574219,
      "latitude": 40.7691459655762,
      "storeId": 11270
    },
    {
      "city": "New York",
      "name": "Trump Tower @ 57th & Fifth",
      "country": "US",
      "longitude": -73.9740600585938,
      "latitude": 40.7624015808105,
      "storeId": 11467
    },
    {
      "city": "New York",
      "name": "81st & Broadway",
      "country": "US",
      "longitude": -73.9786987304688,
      "latitude": 40.7849044799805,
      "storeId": 11483
    },
    {
      "city": "New York",
      "name": "Spring Street at Crosby St",
      "country": "US",
      "longitude": -73.9979553222656,
      "latitude": 40.7225341796875,
      "storeId": 9347
    },
    {
      "city": "New York",
      "name": "76th & Columbus",
      "country": "US",
      "longitude": -73.9771423339844,
      "latitude": 40.7799835205078,
      "storeId": 11532
    },
    {
      "city": "New York",
      "name": "73rd & Columbus",
      "country": "US",
      "longitude": -73.9781723022461,
      "latitude": 40.7779502868652,
      "storeId": 11600
    },
    {
      "city": "New York",
      "name": "78th & Lexington",
      "country": "US",
      "longitude": -73.9593200683594,
      "latitude": 40.7741165161133,
      "storeId": 11688
    },
    {
      "city": "New York",
      "name": "66th & Third",
      "country": "US",
      "longitude": -73.9635925292969,
      "latitude": 40.7659339904785,
      "storeId": 11721
    },
    {
      "city": "New York",
      "name": "49th & Seventh",
      "country": "US",
      "longitude": -73.9836959838867,
      "latitude": 40.7607536315918,
      "storeId": 11631
    },
    {
      "city": "Staten Island",
      "name": "Victory Blvd & Bradley Ave",
      "country": "US",
      "longitude": -74.1325836181641,
      "latitude": 40.6122360229492,
      "storeId": 11701
    },
    {
      "city": "New York",
      "name": "57th & Lex",
      "country": "US",
      "longitude": -73.9691009521484,
      "latitude": 40.7612648010254,
      "storeId": 11862
    },
    {
      "city": "Brooklyn",
      "name": "Court St & Dean St",
      "country": "US",
      "longitude": -73.9927749633789,
      "latitude": 40.688549041748,
      "storeId": 11909
    },
    {
      "city": "New York",
      "name": "52nd & 8th",
      "country": "US",
      "longitude": -73.9853134155273,
      "latitude": 40.7637214660645,
      "storeId": 11952
    },
    {
      "city": "New York",
      "name": "31st & 7th",
      "country": "US",
      "longitude": -73.9923706054688,
      "latitude": 40.7489891052246,
      "storeId": 11599
    },
    {
      "city": "New York",
      "name": "42nd btwn 3rd & Lex",
      "country": "US",
      "longitude": -73.9752807617188,
      "latitude": 40.7508659362793,
      "storeId": 11854
    },
    {
      "city": "Astoria",
      "name": "31-44 Steinway Street",
      "country": "US",
      "longitude": -73.9182205200195,
      "latitude": 40.7602272033691,
      "storeId": 11882
    },
    {
      "city": "New York",
      "name": "Canal and Centre",
      "country": "US",
      "longitude": -74.0000152587891,
      "latitude": 40.7183303833008,
      "storeId": 11834
    },
    {
      "city": "New York",
      "name": "96th & Madison",
      "country": "US",
      "longitude": -73.9544830322266,
      "latitude": 40.7871398925781,
      "storeId": 12003
    },
    {
      "city": "New York",
      "name": "Park Row at Beekman St",
      "country": "US",
      "longitude": -74.0066680908203,
      "latitude": 40.7116432189941,
      "storeId": 12020
    },
    {
      "city": "New York",
      "name": "43rd & 8th",
      "country": "US",
      "longitude": -73.988883972168,
      "latitude": 40.7580833435059,
      "storeId": 12039
    },
    {
      "city": "Staten Island",
      "name": "2505 Richmond Avenue",
      "country": "US",
      "longitude": -74.1678161621094,
      "latitude": 40.5866241455078,
      "storeId": 12090
    },
    {
      "city": "New York",
      "name": "87th & Lexington",
      "country": "US",
      "longitude": -73.9553451538086,
      "latitude": 40.7801399230957,
      "storeId": 12096
    },
    {
      "city": "New York",
      "name": "36th & Madison",
      "country": "US",
      "longitude": -73.982292175293,
      "latitude": 40.7489776611328,
      "storeId": 12352
    },
    {
      "city": "New York",
      "name": "43rd & 3rd",
      "country": "US",
      "longitude": -73.9735870361328,
      "latitude": 40.7515830993652,
      "storeId": 12402
    },
    {
      "city": "New York",
      "name": "Broadway Btwn 37th & 38th",
      "country": "US",
      "longitude": -73.9872283935547,
      "latitude": 40.7524681091309,
      "storeId": 12100
    },
    {
      "city": "New York",
      "name": "125th & Lenox",
      "country": "US",
      "longitude": -73.9451065063477,
      "latitude": 40.8078079223633,
      "storeId": 12294
    },
    {
      "city": "New York",
      "name": "84th & Third",
      "country": "US",
      "longitude": -73.9551315307617,
      "latitude": 40.7774925231934,
      "storeId": 12330
    },
    {
      "city": "New York",
      "name": "85th & First",
      "country": "US",
      "longitude": -73.9502029418945,
      "latitude": 40.7761268615723,
      "storeId": 12482
    },
    {
      "city": "New York",
      "name": "Rockefeller Center Subway",
      "country": "US",
      "longitude": -73.98046875,
      "latitude": 40.7595062255859,
      "storeId": 12247
    },
    {
      "city": "Bronx",
      "name": "Target Riverdale T-1798",
      "country": "US",
      "longitude": -73.9087295532227,
      "latitude": 40.873233795166,
      "storeId": 12556
    },
    {
      "city": "New York",
      "name": "42nd & 8th",
      "country": "US",
      "longitude": -73.9891204833984,
      "latitude": 40.7571067810059,
      "storeId": 12705
    },
    {
      "city": "New York",
      "name": "2 Broadway",
      "country": "US",
      "longitude": -74.0130157470703,
      "latitude": 40.7043495178223,
      "storeId": 12804
    },
    {
      "city": "Forest Hills",
      "name": "Queens Blvd & 67th Rd",
      "country": "US",
      "longitude": -73.8527755737305,
      "latitude": 40.726261138916,
      "storeId": 12870
    },
    {
      "city": "Brooklyn",
      "name": "Flatbush Ave Atlantic Terminal",
      "country": "US",
      "longitude": -73.9776382446289,
      "latitude": 40.6846771240234,
      "storeId": 12539
    },
    {
      "city": "Brooklyn",
      "name": "Target Atlantic Terminal T-1849",
      "country": "US",
      "longitude": -73.9775161743164,
      "latitude": 40.684440612793,
      "storeId": 12555
    },
    {
      "city": "New York",
      "name": "52nd & Lex",
      "country": "US",
      "longitude": -73.9708557128906,
      "latitude": 40.7576141357422,
      "storeId": 13388
    },
    {
      "city": "New York",
      "name": "42nd & 6th",
      "country": "US",
      "longitude": -73.9837951660156,
      "latitude": 40.7548942565918,
      "storeId": 13481
    },
    {
      "city": "New York",
      "name": "93rd and Broadway",
      "country": "US",
      "longitude": -73.973030090332,
      "latitude": 40.7925224304199,
      "storeId": 13521
    },
    {
      "city": "Astoria",
      "name": "31St St & Ditmars Blvd",
      "country": "US",
      "longitude": -73.9109954833984,
      "latitude": 40.7761383056641,
      "storeId": 13535
    },
    {
      "city": "New York",
      "name": "34th & 7th",
      "country": "US",
      "longitude": -73.9909820556641,
      "latitude": 40.7513732910156,
      "storeId": 13516
    },
    {
      "city": "Howard Beach",
      "name": "157-41 Cross Bay Blvd.",
      "country": "US",
      "longitude": -73.8401565551758,
      "latitude": 40.661434173584,
      "storeId": 13525
    },
    {
      "city": "New York",
      "name": "19th & 8th",
      "country": "US",
      "longitude": -74.0003433227539,
      "latitude": 40.7430000305176,
      "storeId": 13467
    },
    {
      "city": "Brooklyn",
      "name": "Court St & Joralemon",
      "country": "US",
      "longitude": -73.9912643432617,
      "latitude": 40.6924476623535,
      "storeId": 13498
    },
    {
      "city": "New York",
      "name": "Water & Whitehall Streets",
      "country": "US",
      "longitude": -74.0128021240234,
      "latitude": 40.7027854919434,
      "storeId": 13511
    },
    {
      "city": "Whitestone",
      "name": "138-11 20th Avenue",
      "country": "US",
      "longitude": -73.8298721313477,
      "latitude": 40.7820205688477,
      "storeId": 13536
    },
    {
      "city": "New York",
      "name": "95th & Broadway",
      "country": "US",
      "longitude": -73.9727478027344,
      "latitude": 40.7938652038574,
      "storeId": 13552
    },
    {
      "city": "Fresh Meadows",
      "name": "188th Street & 64th Ave",
      "country": "US",
      "longitude": -73.7854843139648,
      "latitude": 40.7394027709961,
      "storeId": 13484
    },
    {
      "city": "Forest Hills",
      "name": "107-12 Continental Avenue",
      "country": "US",
      "longitude": -73.8444442749023,
      "latitude": 40.7204399108887,
      "storeId": 13497
    },
    {
      "city": "Bayside",
      "name": "215th St. & Northern Blvd",
      "country": "US",
      "longitude": -73.766471862793,
      "latitude": 40.7608604431152,
      "storeId": 13509
    },
    {
      "city": "Flushing",
      "name": "Main St & 41St Ave",
      "country": "US",
      "longitude": -73.8295440673828,
      "latitude": 40.7580871582031,
      "storeId": 13531
    },
    {
      "city": "New York",
      "name": "Broadway at Barclay Str",
      "country": "US",
      "longitude": -74.0081939697266,
      "latitude": 40.7122077941895,
      "storeId": 13537
    },
    {
      "city": "New York",
      "name": "45th & Park",
      "country": "US",
      "longitude": -73.9764633178711,
      "latitude": 40.7540283203125,
      "storeId": 13539
    },
    {
      "city": "New York",
      "name": "80th & York",
      "country": "US",
      "longitude": -73.9499206542969,
      "latitude": 40.7723579406738,
      "storeId": 13917
    },
    {
      "city": "New York",
      "name": "West 23rd and 8th",
      "country": "US",
      "longitude": -73.9987411499023,
      "latitude": 40.7451019287109,
      "storeId": 13905
    },
    {
      "city": "Brooklyn",
      "name": "Bay Ridge Pkwy & 3rd Ave",
      "country": "US",
      "longitude": -74.0275650024414,
      "latitude": 40.6315727233887,
      "storeId": 13849
    },
    {
      "city": "New York",
      "name": "43rd & Broadway",
      "country": "US",
      "longitude": -73.9859008789062,
      "latitude": 40.7566413879395,
      "storeId": 13918
    },
    {
      "city": "Brooklyn",
      "name": "65th St & 18th Ave",
      "country": "US",
      "longitude": -73.9899139404297,
      "latitude": 40.6191711425781,
      "storeId": 13895
    },
    {
      "city": "New York",
      "name": "58th & Eight",
      "country": "US",
      "longitude": -73.9829483032227,
      "latitude": 40.7675514221191,
      "storeId": 13904
    },
    {
      "city": "New York",
      "name": "51st btwn Park & Madison",
      "country": "US",
      "longitude": -73.9741592407227,
      "latitude": 40.7583694458008,
      "storeId": 13907
    },
    {
      "city": "Woodside",
      "name": "Tower Square Shopping Center",
      "country": "US",
      "longitude": -73.9094009399414,
      "latitude": 40.7524452209473,
      "storeId": 14058
    },
    {
      "city": "Elmhurst",
      "name": "Queens Center Mall",
      "country": "US",
      "longitude": -73.8691711425781,
      "latitude": 40.7345848083496,
      "storeId": 14153
    },
    {
      "city": "New York",
      "name": "53rd & Sixth (NE Corner)",
      "country": "US",
      "longitude": -73.9786987304688,
      "latitude": 40.7618446350098,
      "storeId": 14154
    },
    {
      "city": "New York",
      "name": "48th & 3rd",
      "country": "US",
      "longitude": -73.9717102050781,
      "latitude": 40.7541236877441,
      "storeId": 12091
    },
    {
      "city": "New York",
      "name": "31st & 6th",
      "country": "US",
      "longitude": -73.9892501831055,
      "latitude": 40.7480278015137,
      "storeId": 14380
    },
    {
      "city": "New York",
      "name": "39th & Park",
      "country": "US",
      "longitude": -73.9791412353516,
      "latitude": 40.7506065368652,
      "storeId": 14439
    },
    {
      "city": "Staten Island",
      "name": "2530 Hylan Blvd",
      "country": "US",
      "longitude": -74.1097869873047,
      "latitude": 40.5694732666016,
      "storeId": 14742
    },
    {
      "city": "Staten Island",
      "name": "Staten Island Mall",
      "country": "US",
      "longitude": -74.1664352416992,
      "latitude": 40.5816192626953,
      "storeId": 14502
    },
    {
      "city": "New York",
      "name": "34th & Park",
      "country": "US",
      "longitude": -73.9810943603516,
      "latitude": 40.7467231750488,
      "storeId": 14526
    },
    {
      "city": "New York",
      "name": "Javits Convention Ctr Taxi North",
      "country": "US",
      "longitude": -74.0034255981445,
      "latitude": 40.7567825317383,
      "storeId": 14762
    },
    {
      "city": "New York",
      "name": "86th & Columbus",
      "country": "US",
      "longitude": -73.9722442626953,
      "latitude": 40.7867050170898,
      "storeId": 15082
    },
    {
      "city": "New York",
      "name": "165 Broadway - 1 Liberty",
      "country": "US",
      "longitude": -74.0104217529297,
      "latitude": 40.7095260620117,
      "storeId": 14988
    },
    {
      "city": "New York",
      "name": "70th & Broadway",
      "country": "US",
      "longitude": -73.9824752807617,
      "latitude": 40.777645111084,
      "storeId": 15083
    },
    {
      "city": "New York",
      "name": "17th & 1st",
      "country": "US",
      "longitude": -73.9808197021484,
      "latitude": 40.7332305908203,
      "storeId": 15099
    },
    {
      "city": "New York",
      "name": "Greenwich Ave at Bank St",
      "country": "US",
      "longitude": -74.0017166137695,
      "latitude": 40.7372512817383,
      "storeId": 15174
    },
    {
      "city": "New York",
      "name": "6th & Waverly (Waverly Place)",
      "country": "US",
      "longitude": -73.9997634887695,
      "latitude": 40.7330360412598,
      "storeId": 14816
    },
    {
      "city": "New York",
      "name": "Secure Access: 55th & Sixth",
      "country": "US",
      "longitude": -73.9788055419922,
      "latitude": 40.7629203796387,
      "storeId": 15427
    },
    {
      "city": "New York",
      "name": "54th & Lex",
      "country": "US",
      "longitude": -73.9709396362305,
      "latitude": 40.7587432861328,
      "storeId": 15679
    },
    {
      "city": "New York",
      "name": "15th & Ninth",
      "country": "US",
      "longitude": -74.0046310424805,
      "latitude": 40.7416839599609,
      "storeId": 15686
    },
    {
      "city": "New York",
      "name": "181st & Fort Washington",
      "country": "US",
      "longitude": -73.9384231567383,
      "latitude": 40.851001739502,
      "storeId": 15692
    },
    {
      "city": "New York",
      "name": "Penn Station by A,C,E",
      "country": "US",
      "longitude": -73.9933547973633,
      "latitude": 40.7509536743164,
      "storeId": 15306
    },
    {
      "city": "New York",
      "name": "Lafayette & Worth",
      "country": "US",
      "longitude": -74.0031127929688,
      "latitude": 40.7157325744629,
      "storeId": 15295
    },
    {
      "city": "Staten Island",
      "name": "Forest Ave & Bard Ave",
      "country": "US",
      "longitude": -74.1061248779297,
      "latitude": 40.6304550170898,
      "storeId": 15314
    },
    {
      "city": "New York",
      "name": "Grand Central",
      "country": "US",
      "longitude": -73.9767913818359,
      "latitude": 40.7536697387695,
      "storeId": 15298
    },
    {
      "city": "New York",
      "name": "42nd & Park",
      "country": "US",
      "longitude": -73.977653503418,
      "latitude": 40.7517738342285,
      "storeId": 15315
    },
    {
      "city": "New York",
      "name": "76th & Second",
      "country": "US",
      "longitude": -73.9568252563477,
      "latitude": 40.7712135314941,
      "storeId": 15674
    },
    {
      "city": "New York",
      "name": "42nd & Madison",
      "country": "US",
      "longitude": -73.9795074462891,
      "latitude": 40.7530975341797,
      "storeId": 16090
    },
    {
      "city": "New York",
      "name": "29th & Park",
      "country": "US",
      "longitude": -73.9837493896484,
      "latitude": 40.7442588806152,
      "storeId": 16206
    },
    {
      "city": "Brooklyn",
      "name": "164 7th Avenue",
      "country": "US",
      "longitude": -73.9774627685547,
      "latitude": 40.6719779968262,
      "storeId": 15830
    },
    {
      "city": "New York",
      "name": "39th & 7th",
      "country": "US",
      "longitude": -73.9884338378906,
      "latitude": 40.7536468505859,
      "storeId": 15836
    },
    {
      "city": "New York",
      "name": "8th & 16th",
      "country": "US",
      "longitude": -74.0012969970703,
      "latitude": 40.741153717041,
      "storeId": 16006
    },
    {
      "city": "New York",
      "name": "41st & 3rd",
      "country": "US",
      "longitude": -73.9745635986328,
      "latitude": 40.7501945495605,
      "storeId": 16079
    },
    {
      "city": "New York",
      "name": "60th & First",
      "country": "US",
      "longitude": -73.9611358642578,
      "latitude": 40.7603492736816,
      "storeId": 16178
    },
    {
      "city": "New York",
      "name": "55 Broad Street",
      "country": "US",
      "longitude": -74.0112915039062,
      "latitude": 40.7051620483398,
      "storeId": 16214
    },
    {
      "city": "New York",
      "name": "195 Broadway",
      "country": "US",
      "longitude": -74.0102844238281,
      "latitude": 40.7109222412109,
      "storeId": 16209
    },
    {
      "city": "New York",
      "name": "29th & 5th",
      "country": "US",
      "longitude": -73.9867630004883,
      "latitude": 40.7450180053711,
      "storeId": 16215
    },
    {
      "city": "New York",
      "name": "32nd & 2nd",
      "country": "US",
      "longitude": -73.9768676757812,
      "latitude": 40.7436790466309,
      "storeId": 15875
    },
    {
      "city": "New York",
      "name": "Union Square East",
      "country": "US",
      "longitude": -73.9898452758789,
      "latitude": 40.7350234985352,
      "storeId": 16211
    },
    {
      "city": "New York",
      "name": "48th & Lex",
      "country": "US",
      "longitude": -73.9732208251953,
      "latitude": 40.7550201416016,
      "storeId": 16452
    },
    {
      "city": "New York",
      "name": "Marriott Marquis - Street Level",
      "country": "US",
      "longitude": -73.9856338500977,
      "latitude": 40.7579917907715,
      "storeId": 16303
    },
    {
      "city": "New York",
      "name": "43rd & 9th",
      "country": "US",
      "longitude": -73.9925155639648,
      "latitude": 40.7589340209961,
      "storeId": 16465
    },
    {
      "city": "New York",
      "name": "56th Btwn Sixth & Seventh",
      "country": "US",
      "longitude": -73.9788970947266,
      "latitude": 40.7640190124512,
      "storeId": 16480
    },
    {
      "city": "New York",
      "name": "47th & 8th",
      "country": "US",
      "longitude": -73.987190246582,
      "latitude": 40.7604446411133,
      "storeId": 14350
    },
    {
      "city": "New York",
      "name": "56th & Sixth",
      "country": "US",
      "longitude": -73.9773025512695,
      "latitude": 40.7637062072754,
      "storeId": 14568
    },
    {
      "city": "Bronx",
      "name": "225th & Kingsbridge Plaza",
      "country": "US",
      "longitude": -73.9085159301758,
      "latitude": 40.8735656738281,
      "storeId": 14722
    },
    {
      "city": "New York",
      "name": "Lafayette & 8th Street",
      "country": "US",
      "longitude": -73.9916610717773,
      "latitude": 40.7300071716309,
      "storeId": 16517
    },
    {
      "city": "New York",
      "name": "57th Btwn Eighth & Ninth",
      "country": "US",
      "longitude": -73.9839859008789,
      "latitude": 40.767032623291,
      "storeId": 16687
    },
    {
      "city": "Bronx",
      "name": "Metropolitan Ave & Wood Ave",
      "country": "US",
      "longitude": -73.8615112304688,
      "latitude": 40.8353958129883,
      "storeId": 16503
    },
    {
      "city": "New York",
      "name": "35th & 8th",
      "country": "US",
      "longitude": -73.9929046630859,
      "latitude": 40.7526321411133,
      "storeId": 16813
    },
    {
      "city": "New York",
      "name": "49th btwn 8th & 9th",
      "country": "US",
      "longitude": -73.9874572753906,
      "latitude": 40.7621765136719,
      "storeId": 16666
    },
    {
      "city": "New York",
      "name": "State St & Pearl Streets",
      "country": "US",
      "longitude": -74.0141220092773,
      "latitude": 40.7032852172852,
      "storeId": 16686
    },
    {
      "city": "Forest Hills",
      "name": "7000 Austin Street",
      "country": "US",
      "longitude": -73.8473663330078,
      "latitude": 40.7209777832031,
      "storeId": 16733
    },
    {
      "city": "New York",
      "name": "Â 51st & Broadway",
      "country": "US",
      "longitude": -73.9833450317383,
      "latitude": 40.762092590332,
      "storeId": 16633
    },
    {
      "city": "New York",
      "name": "23rd & 3rd",
      "country": "US",
      "longitude": -73.9833984375,
      "latitude": 40.7387924194336,
      "storeId": 16671
    },
    {
      "city": "New York",
      "name": "100 Williams Street",
      "country": "US",
      "longitude": -74.0074005126953,
      "latitude": 40.7084121704102,
      "storeId": 16844
    },
    {
      "city": "New York",
      "name": "Broadway and Bond",
      "country": "US",
      "longitude": -73.9954605102539,
      "latitude": 40.7271919250488,
      "storeId": 16853
    },
    {
      "city": "Brooklyn",
      "name": "Main St & Front St",
      "country": "US",
      "longitude": -73.9909057617188,
      "latitude": 40.702693939209,
      "storeId": 16940
    },
    {
      "city": "New York",
      "name": "40th & Lex",
      "country": "US",
      "longitude": -73.9770431518555,
      "latitude": 40.7503318786621,
      "storeId": 16936
    },
    {
      "city": "New York",
      "name": "44th & Madison",
      "country": "US",
      "longitude": -73.9787139892578,
      "latitude": 40.7538757324219,
      "storeId": 16970
    },
    {
      "city": "New York",
      "name": "49th & Madison",
      "country": "US",
      "longitude": -73.9758987426758,
      "latitude": 40.7569618225098,
      "storeId": 17016
    },
    {
      "city": "New York",
      "name": "Hudson & 10th",
      "country": "US",
      "longitude": -74.0061264038086,
      "latitude": 40.7336769104004,
      "storeId": 17329
    },
    {
      "city": "New York",
      "name": "Hudson & King",
      "country": "US",
      "longitude": -74.0074081420898,
      "latitude": 40.7275581359863,
      "storeId": 17392
    },
    {
      "city": "Forest Hills",
      "name": "Stop & Shop-Forest Hills #539",
      "country": "US",
      "longitude": -73.8581237792969,
      "latitude": 40.7057266235352,
      "storeId": 17311
    },
    {
      "city": "Brooklyn",
      "name": "6 Metro Tech at Jay Street",
      "country": "US",
      "longitude": -73.986930847168,
      "latitude": 40.6940078735352,
      "storeId": 17013
    },
    {
      "city": "Brooklyn",
      "name": "Smith St & Wyckoff St",
      "country": "US",
      "longitude": -73.9909973144531,
      "latitude": 40.6862258911133,
      "storeId": 17069
    },
    {
      "city": "Brooklyn",
      "name": "910 Manhattan Avenue",
      "country": "US",
      "longitude": -73.9541397094727,
      "latitude": 40.7305297851562,
      "storeId": 17014
    },
    {
      "city": "New York",
      "name": "Broadway & Canal",
      "country": "US",
      "longitude": -74.0025177001953,
      "latitude": 40.7189025878906,
      "storeId": 17070
    },
    {
      "city": "New York",
      "name": "92nd & Third",
      "country": "US",
      "longitude": -73.9514312744141,
      "latitude": 40.7826271057129,
      "storeId": 17572
    },
    {
      "city": "New York",
      "name": "Macy's 3rd Floor",
      "country": "US",
      "longitude": -73.9881057739258,
      "latitude": 40.7505874633789,
      "storeId": 17697
    },
    {
      "city": "New York",
      "name": "63rd & Broadway",
      "country": "US",
      "longitude": -73.9825897216797,
      "latitude": 40.7713661193848,
      "storeId": 17786
    },
    {
      "city": "Staten Island",
      "name": "Stop & Shop-Staten Island #581",
      "country": "US",
      "longitude": -74.1146697998047,
      "latitude": 40.5640640258789,
      "storeId": 17544
    },
    {
      "city": "New York",
      "name": "81st & Columbus",
      "country": "US",
      "longitude": -73.9744567871094,
      "latitude": 40.783634185791,
      "storeId": 17571
    },
    {
      "city": "New York",
      "name": "Broadway & Thames",
      "country": "US",
      "longitude": -74.011116027832,
      "latitude": 40.7087287902832,
      "storeId": 17705
    },
    {
      "city": "New York",
      "name": "50th & 2nd",
      "country": "US",
      "longitude": -73.9686126708984,
      "latitude": 40.7550430297852,
      "storeId": 17627
    },
    {
      "city": "New York",
      "name": "168th & Broadway",
      "country": "US",
      "longitude": -73.9398193359375,
      "latitude": 40.8413505554199,
      "storeId": 18042
    },
    {
      "city": "Bellerose",
      "name": "251-05 Jamaica Avenue",
      "country": "US",
      "longitude": -73.7140197753906,
      "latitude": 40.7270126342773,
      "storeId": 18229
    },
    {
      "city": "New York",
      "name": "145th & Bradhurst",
      "country": "US",
      "longitude": -73.9426116943359,
      "latitude": 40.8233833312988,
      "storeId": 18230
    },
    {
      "city": "New York",
      "name": "2nd Ave. & 9th Street",
      "country": "US",
      "longitude": -73.9873733520508,
      "latitude": 40.7293586730957,
      "storeId": 18409
    },
    {
      "city": "New York",
      "name": "28th & 7th",
      "country": "US",
      "longitude": -73.9933242797852,
      "latitude": 40.7469749450684,
      "storeId": 18290
    },
    {
      "city": "New York",
      "name": "39th & 8th",
      "country": "US",
      "longitude": -73.9909057617188,
      "latitude": 40.7553253173828,
      "storeId": 18444
    },
    {
      "city": "New York",
      "name": "Broadway & Reade",
      "country": "US",
      "longitude": -74.0059356689453,
      "latitude": 40.7148551940918,
      "storeId": 18526
    },
    {
      "city": "New York",
      "name": "58th & Sixth",
      "country": "US",
      "longitude": -73.9770889282227,
      "latitude": 40.7647666931152,
      "storeId": 18618
    },
    {
      "city": "New York",
      "name": "Limited Brands-NYC",
      "country": "US",
      "longitude": -73.9820251464844,
      "latitude": 40.7652206420898,
      "storeId": 18679
    },
    {
      "city": "Brooklyn",
      "name": "3rd Ave & 92nd St",
      "country": "US",
      "longitude": -74.0329513549805,
      "latitude": 40.6192741394043,
      "storeId": 18465
    },
    {
      "city": "New York",
      "name": "47th & 5th",
      "country": "US",
      "longitude": -73.9781646728516,
      "latitude": 40.7563018798828,
      "storeId": 18588
    },
    {
      "city": "New York",
      "name": "7th Ave at Grove Street",
      "country": "US",
      "longitude": -74.0028457641602,
      "latitude": 40.7331848144531,
      "storeId": 18506
    },
    {
      "city": "New York",
      "name": "Target East River Plaza T-2380",
      "country": "US",
      "longitude": -73.9325485229492,
      "latitude": 40.7956886291504,
      "storeId": 19040
    },
    {
      "city": "Elmhurst",
      "name": "Target Queens Place T-1344",
      "country": "US",
      "longitude": -73.8749084472656,
      "latitude": 40.7353286743164,
      "storeId": 19141
    },
    {
      "city": "Flushing",
      "name": "Target Flushing T-2451",
      "country": "US",
      "longitude": -73.8340606689453,
      "latitude": 40.757266998291,
      "storeId": 19218
    },
    {
      "city": "New York",
      "name": "96th & Lexington",
      "country": "US",
      "longitude": -73.9506607055664,
      "latitude": 40.785945892334,
      "storeId": 19114
    },
    {
      "city": "Astoria",
      "name": "31-01 Broadway",
      "country": "US",
      "longitude": -73.9250717163086,
      "latitude": 40.7619934082031,
      "storeId": 20069
    },
    {
      "city": "New York",
      "name": "23rd & Park",
      "country": "US",
      "longitude": -73.9869689941406,
      "latitude": 40.740161895752,
      "storeId": 17645
    },
    {
      "city": "Brooklyn",
      "name": "514 86th St",
      "country": "US",
      "longitude": -74.0258178710938,
      "latitude": 40.6211318969727,
      "storeId": 17881
    },
    {
      "city": "Brooklyn",
      "name": "Target Gateway T-1401",
      "country": "US",
      "longitude": -73.8677139282227,
      "latitude": 40.6522254943848,
      "storeId": 65799
    },
    {
      "city": "New York",
      "name": "43rd & Sixth",
      "country": "US",
      "longitude": -73.984130859375,
      "latitude": 40.7556076049805,
      "storeId": 20501
    },
    {
      "city": "New York",
      "name": "8th Ave just south of 14th St",
      "country": "US",
      "longitude": -74.0026092529297,
      "latitude": 40.7393760681152,
      "storeId": 35545
    },
    {
      "city": "New York",
      "name": "69th & First",
      "country": "US",
      "longitude": -73.9575347900391,
      "latitude": 40.7660789489746,
      "storeId": 65754
    },
    {
      "city": "New York",
      "name": "W Broadway & Leonard Street",
      "country": "US",
      "longitude": -74.0073165893555,
      "latitude": 40.7182312011719,
      "storeId": 66292
    },
    {
      "city": "Brooklyn",
      "name": "Macy's-Kings Plaza #6",
      "country": "US",
      "longitude": -73.9204635620117,
      "latitude": 40.6110420227051,
      "storeId": 69677
    },
    {
      "city": "New York",
      "name": "36th & 6th",
      "country": "US",
      "longitude": -73.9870147705078,
      "latitude": 40.7509994506836,
      "storeId": 69880
    },
    {
      "city": "New York",
      "name": "26th & Broadway",
      "country": "US",
      "longitude": -73.988883972168,
      "latitude": 40.7438316345215,
      "storeId": 70030
    },
    {
      "city": "New York",
      "name": "3rd St & First Avenue",
      "country": "US",
      "longitude": -73.9876937866211,
      "latitude": 40.724536895752,
      "storeId": 70170
    },
    {
      "city": "Brooklyn",
      "name": "134 Montague Street",
      "country": "US",
      "longitude": -73.9939651489258,
      "latitude": 40.6947021484375,
      "storeId": 88600
    },
    {
      "city": "New York",
      "name": "25th & Lex",
      "country": "US",
      "longitude": -73.9843292236328,
      "latitude": 40.7405090332031,
      "storeId": 90244
    },
    {
      "city": "New York",
      "name": "52nd Btwn Fifth & Sixth",
      "country": "US",
      "longitude": -73.979362487793,
      "latitude": 40.7606925964355,
      "storeId": 88886
    },
    {
      "city": "New York",
      "name": "100th & Columbus",
      "country": "US",
      "longitude": -73.9655303955078,
      "latitude": 40.7952346801758,
      "storeId": 89150
    },
    {
      "city": "Brooklyn",
      "name": "348 Fulton Street",
      "country": "US",
      "longitude": -73.9885635375977,
      "latitude": 40.691764831543,
      "storeId": 89214
    },
    {
      "city": "New York",
      "name": "John & Water Streets",
      "country": "US",
      "longitude": -74.004768371582,
      "latitude": 40.7072143554688,
      "storeId": 90577
    },
    {
      "city": "New York",
      "name": "42nd & 9th",
      "country": "US",
      "longitude": -73.9919586181641,
      "latitude": 40.7579956054688,
      "storeId": 91201
    },
    {
      "city": "Brooklyn",
      "name": "Barclays Center",
      "country": "US",
      "longitude": -73.975944519043,
      "latitude": 40.6826362609863,
      "storeId": 91225
    },
    {
      "city": "New York",
      "name": "Macy's 2nd Floor",
      "country": "US",
      "longitude": -73.9887084960938,
      "latitude": 40.750789642334,
      "storeId": 90222
    },
    {
      "city": "New York",
      "name": "53rd & Sixth (SW Corner)",
      "country": "US",
      "longitude": -73.9795455932617,
      "latitude": 40.7617950439453,
      "storeId": 90480
    },
    {
      "city": "New York",
      "name": "13th & 1st",
      "country": "US",
      "longitude": -73.9832000732422,
      "latitude": 40.730899810791,
      "storeId": 90278
    },
    {
      "city": "New York",
      "name": "58th Btwn Madison & Fifth",
      "country": "US",
      "longitude": -73.9723510742188,
      "latitude": 40.7630767822266,
      "storeId": 90579
    },
    {
      "city": "New York",
      "name": "Manhattan Mall 1st Floor",
      "country": "US",
      "longitude": -73.9883041381836,
      "latitude": 40.7491455078125,
      "storeId": 113227
    },
    {
      "city": "New York",
      "name": "Brookfield Place 1",
      "country": "US",
      "longitude": -74.0154266357422,
      "latitude": 40.7111358642578,
      "storeId": 113971
    },
    {
      "city": "Elmhurst",
      "name": "Queens Blvd & Broadway",
      "country": "US",
      "longitude": -73.8772964477539,
      "latitude": 40.7374458312988,
      "storeId": 113993
    },
    {
      "city": "Brooklyn",
      "name": "164 Park Place",
      "country": "US",
      "longitude": -73.9729385375977,
      "latitude": 40.6774826049805,
      "storeId": 116485
    },
    {
      "city": "New York",
      "name": "28th & 3rd",
      "country": "US",
      "longitude": -73.9807739257812,
      "latitude": 40.7417907714844,
      "storeId": 114014
    },
    {
      "city": "New York",
      "name": "63rd & Lexington",
      "country": "US",
      "longitude": -73.9663619995117,
      "latitude": 40.764705657959,
      "storeId": 116566
    },
    {
      "city": "Staten Island",
      "name": "106 Page Avenue",
      "country": "US",
      "longitude": -74.2355422973633,
      "latitude": 40.5216369628906,
      "storeId": 116567
    },
    {
      "city": "New York",
      "name": "Pearl & Maiden",
      "country": "US",
      "longitude": -74.0065841674805,
      "latitude": 40.7063179016113,
      "storeId": 1004742
    },
    {
      "city": "New York",
      "name": "99 Wall Street",
      "country": "US",
      "longitude": -74.0072326660156,
      "latitude": 40.7048187255859,
      "storeId": 1005523
    },
    {
      "city": "New York",
      "name": "47th & Broadway",
      "country": "US",
      "longitude": -73.985237121582,
      "latitude": 40.7596282958984,
      "storeId": 1005509
    },
    {
      "city": "New York",
      "name": "Port Authority South Wing",
      "country": "US",
      "longitude": -73.9909591674805,
      "latitude": 40.756706237793,
      "storeId": 1005154
    },
    {
      "city": "Brooklyn",
      "name": "395 Flatbush Ave Extension",
      "country": "US",
      "longitude": -73.9809112548828,
      "latitude": 40.6894302368164,
      "storeId": 1005807
    },
    {
      "city": "New York",
      "name": "Macy's Mezzanine",
      "country": "US",
      "longitude": -73.9890213012695,
      "latitude": 40.7505264282227,
      "storeId": 1005655
    },
    {
      "city": "New York",
      "name": "53rd & Madison",
      "country": "US",
      "longitude": -73.9736022949219,
      "latitude": 40.759593963623,
      "storeId": 1005802
    },
    {
      "city": "New York",
      "name": "57th & Eighth",
      "country": "US",
      "longitude": -73.9829559326172,
      "latitude": 40.7663078308105,
      "storeId": 1005900
    },
    {
      "city": "Brooklyn",
      "name": "1417 Kings Highway",
      "country": "US",
      "longitude": -73.9585876464844,
      "latitude": 40.6087875366211,
      "storeId": 1005808
    },
    {
      "city": "New York",
      "name": "23rd & 1st",
      "country": "US",
      "longitude": -73.9783782958984,
      "latitude": 40.7365455627441,
      "storeId": 1005905
    },
    {
      "city": "Staten Island",
      "name": "Target Staten Island T-2753",
      "country": "US",
      "longitude": -74.1697082519531,
      "latitude": 40.5753440856934,
      "storeId": 1006013
    },
    {
      "city": "New York",
      "name": "99th & Broadway",
      "country": "US",
      "longitude": -73.9705963134766,
      "latitude": 40.7967872619629,
      "storeId": 1006372
    },
    {
      "city": "New York",
      "name": "Broadway & Dyckman",
      "country": "US",
      "longitude": -73.9272842407227,
      "latitude": 40.86572265625,
      "storeId": 1006441
    },
    {
      "city": "New York",
      "name": "UNIQLO @ 53rd & Fifth",
      "country": "US",
      "longitude": -73.97607421875,
      "latitude": 40.7603874206543,
      "storeId": 1006912
    },
    {
      "city": "New York",
      "name": "87th & Third",
      "country": "US",
      "longitude": -73.9536972045898,
      "latitude": 40.7794647216797,
      "storeId": 1006781
    },
    {
      "city": "New York",
      "name": "60 Wall St",
      "country": "US",
      "longitude": -74.0083465576172,
      "latitude": 40.7060317993164,
      "storeId": 1006984
    },
    {
      "city": "New York",
      "name": "49th & Park",
      "country": "US",
      "longitude": -73.9749298095703,
      "latitude": 40.7565727233887,
      "storeId": 1007200
    },
    {
      "city": "New York",
      "name": "53rd Inside Park Ave Plaza",
      "country": "US",
      "longitude": -73.9737548828125,
      "latitude": 40.7589683532715,
      "storeId": 1010008
    },
    {
      "city": "New York",
      "name": "6th Ave at Walker Street",
      "country": "US",
      "longitude": -74.0049514770508,
      "latitude": 40.7198524475098,
      "storeId": 1007714
    },
    {
      "city": "Astoria",
      "name": "Astoria Blvd & 31st St",
      "country": "US",
      "longitude": -73.9185104370117,
      "latitude": 40.7700309753418,
      "storeId": 1007349
    },
    {
      "city": "Bronx",
      "name": "Fordham Plaza",
      "country": "US",
      "longitude": -73.890266418457,
      "latitude": 40.8606338500977,
      "storeId": 1007323
    },
    {
      "city": "Bronx",
      "name": "Target Bronx T-2811",
      "country": "US",
      "longitude": -73.836555480957,
      "latitude": 40.8248863220215,
      "storeId": 1007525
    },
    {
      "city": "Bronx",
      "name": "Manhattan College - Thomas Hall Stu",
      "country": "US",
      "longitude": -73.9024124145508,
      "latitude": 40.8891105651855,
      "storeId": 1006910
    },
    {
      "city": "New York",
      "name": "45th & 5th",
      "country": "US",
      "longitude": -73.9801483154297,
      "latitude": 40.7554626464844,
      "storeId": 1010241
    },
    {
      "city": "Brooklyn",
      "name": "Union Ave & Ainslie St",
      "country": "US",
      "longitude": -73.9515686035156,
      "latitude": 40.7125968933105,
      "storeId": 1006971
    },
    {
      "city": "New York",
      "name": "239 Bleecker St",
      "country": "US",
      "longitude": -74.0024108886719,
      "latitude": 40.730770111084,
      "storeId": 1007715
    },
    {
      "city": "New York",
      "name": "54th and Broadway",
      "country": "US",
      "longitude": -73.9823532104492,
      "latitude": 40.7636871337891,
      "storeId": 1010184
    },
    {
      "city": "Brooklyn",
      "name": "Kings Plaza Mall",
      "country": "US",
      "longitude": -73.9211273193359,
      "latitude": 40.6101913452148,
      "storeId": 1008866
    },
    {
      "city": "Brooklyn",
      "name": "Franklin Ave & Eastern Pkwy",
      "country": "US",
      "longitude": -73.9576950073242,
      "latitude": 40.6710243225098,
      "storeId": 1007630
    },
    {
      "city": "Richmond Hill",
      "name": "132-40 Metropolitan Ave",
      "country": "US",
      "longitude": -73.8185958862305,
      "latitude": 40.7025909423828,
      "storeId": 1006790
    },
    {
      "city": "Brooklyn",
      "name": "Caesar's Bay Shopping Center",
      "country": "US",
      "longitude": -74.0003280639648,
      "latitude": 40.5950927734375,
      "storeId": 1007631
    },
    {
      "city": "Brooklyn",
      "name": "154 N Seventh St",
      "country": "US",
      "longitude": -73.9581756591797,
      "latitude": 40.717945098877,
      "storeId": 1007809
    },
    {
      "city": "Flushing",
      "name": "3805 Main St",
      "country": "US",
      "longitude": -73.8303756713867,
      "latitude": 40.7606010437012,
      "storeId": 1009150
    },
    {
      "city": "New York",
      "name": "43rd & Lex",
      "country": "US",
      "longitude": -73.975227355957,
      "latitude": 40.7523002624512,
      "storeId": 1007742
    },
    {
      "city": "New York",
      "name": "80th & Second",
      "country": "US",
      "longitude": -73.9546432495117,
      "latitude": 40.7742156982422,
      "storeId": 1011437
    },
    {
      "city": "New York",
      "name": "New York University",
      "country": "US",
      "longitude": -73.9961776733398,
      "latitude": 40.7296562194824,
      "storeId": 14149
    },
    {
      "city": "New York",
      "name": "Water St @ Broad (inside)",
      "country": "US",
      "longitude": -74.0120315551758,
      "latitude": 40.7020454406738,
      "storeId": 1008845
    },
    {
      "city": "New York",
      "name": "53rd & 3rd",
      "country": "US",
      "longitude": -73.9690933227539,
      "latitude": 40.7573738098145,
      "storeId": 1010020
    },
    {
      "city": "New York",
      "name": "57th & Tenth",
      "country": "US",
      "longitude": -73.98828125,
      "latitude": 40.7691688537598,
      "storeId": 1009088
    },
    {
      "city": "New York",
      "name": "14 Wall St",
      "country": "US",
      "longitude": -74.0109634399414,
      "latitude": 40.7074584960938,
      "storeId": 1011752
    },
    {
      "city": "Brooklyn",
      "name": "394 Myrtle Ave",
      "country": "US",
      "longitude": -73.9701309204102,
      "latitude": 40.6930122375488,
      "storeId": 1009474
    },
    {
      "city": "New York",
      "name": "45th btwn Lex & 3rd",
      "country": "US",
      "longitude": -73.9739379882812,
      "latitude": 40.7528533935547,
      "storeId": 1011956
    },
    {
      "city": "Brooklyn",
      "name": "Gold St & Johnson Street",
      "country": "US",
      "longitude": -73.9831008911133,
      "latitude": 40.6949653625488,
      "storeId": 1009903
    },
    {
      "city": "Staten Island",
      "name": "Teavana - Staten Island Mall",
      "country": "US",
      "longitude": -74.1691513061523,
      "latitude": 40.5809631347656,
      "storeId": 1012501
    },
    {
      "city": "Elmhurst",
      "name": "Teavana - Queens Center",
      "country": "US",
      "longitude": -73.8717575073242,
      "latitude": 40.7341346740723,
      "storeId": 1012754
    },
    {
      "city": "New York",
      "name": "110th & Manhattan",
      "country": "US",
      "longitude": -73.959602355957,
      "latitude": 40.8008918762207,
      "storeId": 1012150
    },
    {
      "city": "New York",
      "name": "Teavana - Manhattan Project",
      "country": "US",
      "longitude": -73.9550933837891,
      "latitude": 40.7800331115723,
      "storeId": 1012513
    },
    {
      "city": "New York",
      "name": "Teavana - Broadway at 81st",
      "country": "US",
      "longitude": -73.9791870117188,
      "latitude": 40.7853507995605,
      "storeId": 1012691
    },
    {
      "city": "Bronx",
      "name": "230th & Broadway",
      "country": "US",
      "longitude": -73.9055633544922,
      "latitude": 40.8775596618652,
      "storeId": 1007629
    },
    {
      "city": "New York",
      "name": "32nd btwn 6th & 7th",
      "country": "US",
      "longitude": -73.9904251098633,
      "latitude": 40.7491149902344,
      "storeId": 1006756
    },
    {
      "city": "Brooklyn",
      "name": "Lam Group @ Sheraton Brooklyn",
      "country": "US",
      "longitude": -73.9843521118164,
      "latitude": 40.6915664672852,
      "storeId": 1012534
    },
    {
      "city": "New York",
      "name": "63rd & 3rd Ave",
      "country": "US",
      "longitude": -73.9642791748047,
      "latitude": 40.7642059326172,
      "storeId": 1014942
    },
    {
      "city": "Bronx",
      "name": "161st & Morris Ave",
      "country": "US",
      "longitude": -73.9190521240234,
      "latitude": 40.8256034851074,
      "storeId": 1013054
    },
    {
      "city": "New York",
      "name": "ABC 77 West Cafe",
      "country": "US",
      "longitude": -73.9801330566406,
      "latitude": 40.7731018066406,
      "storeId": 1013064
    },
    {
      "city": "New York",
      "name": "Union Square West",
      "country": "US",
      "longitude": -73.9911193847656,
      "latitude": 40.736270904541,
      "storeId": 1013197
    },
    {
      "city": "New York",
      "name": "33rd btwn 5th & 6th",
      "country": "US",
      "longitude": -73.9856262207031,
      "latitude": 40.748233795166,
      "storeId": 1012266
    },
    {
      "city": "New York",
      "name": "Starbucks Level 3 Jacob Javits Cemt",
      "country": "US",
      "longitude": -74.0034942626953,
      "latitude": 40.7564163208008,
      "storeId": 1007160
    },
    {
      "city": "New York",
      "name": "26th between 10th and 11th",
      "country": "US",
      "longitude": -74.0039978027344,
      "latitude": 40.7502784729004,
      "storeId": 1013606
    },
    {
      "city": "New York",
      "name": "40th btwn Madison & 5th",
      "country": "US",
      "longitude": -73.9811096191406,
      "latitude": 40.7520332336426,
      "storeId": 1013717
    },
    {
      "city": "New York",
      "name": "6th between 39th and 40th",
      "country": "US",
      "longitude": -73.9851150512695,
      "latitude": 40.7531204223633,
      "storeId": 1014050
    },
    {
      "city": "Jamaica",
      "name": "89th Ave & Sutphin Blvd.",
      "country": "US",
      "longitude": -73.8088226318359,
      "latitude": 40.703540802002,
      "storeId": 1014349
    },
    {
      "city": "Brooklyn",
      "name": "Flatbush Ave & Kings Hwy",
      "country": "US",
      "longitude": -73.9366683959961,
      "latitude": 40.6226348876953,
      "storeId": 1009148
    },
    {
      "city": "Rego Park",
      "name": "92-77 Queens Blvd",
      "country": "US",
      "longitude": -73.8665237426758,
      "latitude": 40.7321891784668,
      "storeId": 1008876
    },
    {
      "city": "New York",
      "name": "46th between 6th and 5th",
      "country": "US",
      "longitude": -73.9811401367188,
      "latitude": 40.7570533752441,
      "storeId": 1014671
    },
    {
      "city": "New York",
      "name": "222 Broadway",
      "country": "US",
      "longitude": -74.0086441040039,
      "latitude": 40.7107963562012,
      "storeId": 1014357
    },
    {
      "city": "New York",
      "name": "Columbus Circle Subway",
      "country": "US",
      "longitude": -73.9814682006836,
      "latitude": 40.7681465148926,
      "storeId": 1014682
    },
    {
      "city": "Rego Park",
      "name": "95-17 63rd Drive",
      "country": "US",
      "longitude": -73.8627548217773,
      "latitude": 40.729808807373,
      "storeId": 1009778
    },
    {
      "city": "Bronx",
      "name": "Eastchester Rd. & Morris Park Ave.",
      "country": "US",
      "longitude": -73.844108581543,
      "latitude": 40.8511047363281,
      "storeId": 1015362
    },
    {
      "city": "New York",
      "name": "JP Morgan New York Plaza - 14th FL",
      "country": "US",
      "longitude": -74.0114364624023,
      "latitude": 40.7028617858887,
      "storeId": 1015445
    },
    {
      "city": "Bronx",
      "name": "Throgs Neck Shopping Center",
      "country": "US",
      "longitude": -73.8380966186523,
      "latitude": 40.8243141174316,
      "storeId": 1015873
    },
    {
      "city": "New York",
      "name": "Brookfield Place 2",
      "country": "US",
      "longitude": -74.0154342651367,
      "latitude": 40.714168548584,
      "storeId": 1015738
    },
    {
      "city": "New York",
      "name": "Broadway and 9th",
      "country": "US",
      "longitude": -73.992057800293,
      "latitude": 40.7313613891602,
      "storeId": 1016069
    },
    {
      "city": "New York",
      "name": "10 Waverly Place",
      "country": "US",
      "longitude": -73.9942626953125,
      "latitude": 40.7299842834473,
      "storeId": 1015672
    },
    {
      "city": "New York",
      "name": "85th & Madison",
      "country": "US",
      "longitude": -73.9595642089844,
      "latitude": 40.7801361083984,
      "storeId": 1015661
    },
    {
      "city": "Brooklyn",
      "name": "7th Ave and 9th St",
      "country": "US",
      "longitude": -73.9817810058594,
      "latitude": 40.6668548583984,
      "storeId": 1015924
    },
    {
      "city": "New York",
      "name": "93rd & Second",
      "country": "US",
      "longitude": -73.948371887207,
      "latitude": 40.7827758789062,
      "storeId": 1015899
    },
    {
      "city": "Staten Island",
      "name": "Woodrow Shopping Plaza",
      "country": "US",
      "longitude": -74.2070999145508,
      "latitude": 40.5419845581055,
      "storeId": 1015914
    }
  ]
}
